{
  "correspondent": "Dehmel, Richard",
  "letters": [
    {
      "id": "L00297",
      "title": "Karl Kraus u. a. an Richard Dehmel, 10. 2. 1894",
      "type": "von schnitzler",
      "date": "1894-02-10",
      "sender": {
        "name": "Schnitzler, Arthur",
        "ref": "pmb2121"
      },
      "receiver": {
        "name": "Dehmel, Richard",
        "ref": "pmb11148"
      },
      "from": {
        "name": "Wien",
        "ref": "pmb50",
        "lat": 48.208333,
        "lon": 16.373056
      },
      "to": {
        "name": "Berlin-Pankow",
        "ref": "pmb17871",
        "lat": 52.569167,
        "lon": 13.403333
      }
    },
    {
      "id": "L02550",
      "title": "Arthur Schnitzler: Widmungsexemplar Der Schleier der Beatrice für Richard Dehmel, [1. 1. 1902?]",
      "type": "von schnitzler",
      "date": "1902-01-01",
      "sender": {
        "name": "Schnitzler, Arthur",
        "ref": "pmb2121"
      },
      "receiver": {
        "name": "Dehmel, Richard",
        "ref": "pmb11148"
      },
      "from": {
        "name": "Berlin",
        "ref": "pmb168",
        "lat": 52.52437,
        "lon": 13.41053
      },
      "to": {
        "name": "Blankenese",
        "ref": "pmb1226",
        "lat": 53.5652,
        "lon": 9.7972
      }
    },
    {
      "id": "L01194",
      "title": "Richard Dehmel an Arthur Schnitzler, 1. 1. 1902",
      "type": "von partner",
      "date": "1902-01-01",
      "sender": {
        "name": "Dehmel, Richard",
        "ref": "pmb11148"
      },
      "receiver": {
        "name": "Schnitzler, Arthur",
        "ref": "pmb2121"
      },
      "from": {
        "name": "Blankenese",
        "ref": "pmb1226",
        "lat": 53.5652,
        "lon": 9.7972
      },
      "to": {
        "name": "Wien",
        "ref": "pmb50",
        "lat": 48.208333,
        "lon": 16.373056
      }
    },
    {
      "id": "L01198",
      "title": "Arthur Schnitzler an Richard Dehmel, 13. 1. 1902",
      "type": "von schnitzler",
      "date": "1902-01-13",
      "sender": {
        "name": "Schnitzler, Arthur",
        "ref": "pmb2121"
      },
      "receiver": {
        "name": "Dehmel, Richard",
        "ref": "pmb11148"
      },
      "from": {
        "name": "Wien",
        "ref": "pmb50",
        "lat": 48.208333,
        "lon": 16.373056
      },
      "to": null
    },
    {
      "id": "L01202",
      "title": "Richard Dehmel an Arthur Schnitzler, 14. 2. 1902",
      "type": "von partner",
      "date": "1902-02-14",
      "sender": {
        "name": "Dehmel, Richard",
        "ref": "pmb11148"
      },
      "receiver": {
        "name": "Schnitzler, Arthur",
        "ref": "pmb2121"
      },
      "from": {
        "name": "Blankenese",
        "ref": "pmb1226",
        "lat": 53.5652,
        "lon": 9.7972
      },
      "to": {
        "name": "Wien",
        "ref": "pmb50",
        "lat": 48.208333,
        "lon": 16.373056
      }
    },
    {
      "id": "L01203",
      "title": "Arthur Schnitzler an Richard Dehmel, 16. 2. 1902",
      "type": "von schnitzler",
      "date": "1902-02-16",
      "sender": {
        "name": "Schnitzler, Arthur",
        "ref": "pmb2121"
      },
      "receiver": {
        "name": "Dehmel, Richard",
        "ref": "pmb11148"
      },
      "from": {
        "name": "Wien",
        "ref": "pmb50",
        "lat": 48.208333,
        "lon": 16.373056
      },
      "to": {
        "name": "Blankenese",
        "ref": "pmb1226",
        "lat": 53.5652,
        "lon": 9.7972
      }
    },
    {
      "id": "L01278",
      "title": "Arthur Schnitzler an Richard Dehmel, 22. 3. 1903",
      "type": "von schnitzler",
      "date": "1903-03-22",
      "sender": {
        "name": "Schnitzler, Arthur",
        "ref": "pmb2121"
      },
      "receiver": {
        "name": "Dehmel, Richard",
        "ref": "pmb11148"
      },
      "from": {
        "name": "Wien",
        "ref": "pmb50",
        "lat": 48.208333,
        "lon": 16.373056
      },
      "to": null
    },
    {
      "id": "L01378",
      "title": "Richard Dehmel an Arthur Schnitzler, [6. 3. 1904?]",
      "type": "von partner",
      "date": "1904-03-06",
      "sender": {
        "name": "Dehmel, Richard",
        "ref": "pmb11148"
      },
      "receiver": {
        "name": "Schnitzler, Arthur",
        "ref": "pmb2121"
      },
      "from": null,
      "to": {
        "name": "Wien",
        "ref": "pmb50",
        "lat": 48.208333,
        "lon": 16.373056
      }
    },
    {
      "id": "L01647",
      "title": "Richard Dehmel an Arthur Schnitzler, [1907]",
      "type": "von partner",
      "date": null,
      "sender": {
        "name": "Dehmel, Richard",
        "ref": "pmb11148"
      },
      "receiver": {
        "name": "Schnitzler, Arthur",
        "ref": "pmb2121"
      },
      "from": null,
      "to": {
        "name": "Wien",
        "ref": "pmb50",
        "lat": 48.208333,
        "lon": 16.373056
      }
    },
    {
      "id": "L01775",
      "title": "Richard Dehmel an Arthur Schnitzler, 8. 6. 1908",
      "type": "von partner",
      "date": "1908-06-08",
      "sender": {
        "name": "Dehmel, Richard",
        "ref": "pmb11148"
      },
      "receiver": {
        "name": "Schnitzler, Arthur",
        "ref": "pmb2121"
      },
      "from": {
        "name": "Braunwald",
        "ref": "pmb44880",
        "lat": 46.94159,
        "lon": 8.99643
      },
      "to": {
        "name": "Wien",
        "ref": "pmb50",
        "lat": 48.208333,
        "lon": 16.373056
      }
    },
    {
      "id": "L01801",
      "title": "Richard Dehmel an Arthur Schnitzler, 14. 11. 1908",
      "type": "von partner",
      "date": "1908-11-14",
      "sender": {
        "name": "Dehmel, Richard",
        "ref": "pmb11148"
      },
      "receiver": {
        "name": "Schnitzler, Arthur",
        "ref": "pmb2121"
      },
      "from": {
        "name": "Wien",
        "ref": "pmb50",
        "lat": 48.208333,
        "lon": 16.373056
      },
      "to": {
        "name": "Wien",
        "ref": "pmb50",
        "lat": 48.208333,
        "lon": 16.373056
      }
    },
    {
      "id": "L01802",
      "title": "Arthur Schnitzler an Richard Dehmel, [14. 11. 1908?]",
      "type": "von schnitzler",
      "date": "1908-11-14",
      "sender": {
        "name": "Schnitzler, Arthur",
        "ref": "pmb2121"
      },
      "receiver": {
        "name": "Dehmel, Richard",
        "ref": "pmb11148"
      },
      "from": {
        "name": "Wien",
        "ref": "pmb50",
        "lat": 48.208333,
        "lon": 16.373056
      },
      "to": {
        "name": "Wien",
        "ref": "pmb50",
        "lat": 48.208333,
        "lon": 16.373056
      }
    },
    {
      "id": "L01892",
      "title": "Richard Dehmel, Gerhart Hauptmann und Jakob Wassermann an Arthur Schnitzler, 3. 12. 1909",
      "type": "von partner",
      "date": "1909-12-03",
      "sender": {
        "name": "Dehmel, Richard",
        "ref": "pmb11148"
      },
      "receiver": {
        "name": "Schnitzler, Arthur",
        "ref": "pmb2121"
      },
      "from": {
        "name": "Berlin",
        "ref": "pmb168",
        "lat": 52.52437,
        "lon": 13.41053
      },
      "to": {
        "name": "Wien",
        "ref": "pmb50",
        "lat": 48.208333,
        "lon": 16.373056
      }
    },
    {
      "id": "L02084",
      "title": "Richard Dehmel an Arthur Schnitzler, 14. 8. 1912",
      "type": "von partner",
      "date": "1912-08-14",
      "sender": {
        "name": "Dehmel, Richard",
        "ref": "pmb11148"
      },
      "receiver": {
        "name": "Schnitzler, Arthur",
        "ref": "pmb2121"
      },
      "from": {
        "name": "Hamburg",
        "ref": "pmb506",
        "lat": 53.55055,
        "lon": 9.993333
      },
      "to": {
        "name": "Brijuni",
        "ref": "pmb45260",
        "lat": 44.91417,
        "lon": 13.76222
      }
    },
    {
      "id": "L02086",
      "title": "Arthur Schnitzler an Richard Dehmel, 19. 8. 1912",
      "type": "von schnitzler",
      "date": "1912-08-19",
      "sender": {
        "name": "Schnitzler, Arthur",
        "ref": "pmb2121"
      },
      "receiver": {
        "name": "Dehmel, Richard",
        "ref": "pmb11148"
      },
      "from": {
        "name": "Brijuni",
        "ref": "pmb45260",
        "lat": 44.91417,
        "lon": 13.76222
      },
      "to": {
        "name": "Hamburg",
        "ref": "pmb506",
        "lat": 53.55055,
        "lon": 9.993333
      }
    },
    {
      "id": "L02157",
      "title": "Richard Dehmel an Arthur Schnitzler, [18. 11. 1913?]",
      "type": "von partner",
      "date": "1913-11-18",
      "sender": {
        "name": "Dehmel, Richard",
        "ref": "pmb11148"
      },
      "receiver": {
        "name": "Schnitzler, Arthur",
        "ref": "pmb2121"
      },
      "from": {
        "name": "Hamburg",
        "ref": "pmb506",
        "lat": 53.55055,
        "lon": 9.993333
      },
      "to": {
        "name": "Wien",
        "ref": "pmb50",
        "lat": 48.208333,
        "lon": 16.373056
      }
    }
  ]
}